mall_name,mall_address,mall_contact_no,image_link,fb_link,logo_link,geocode,latitude,longitude,formatted_address,province
Glorietta,"Glorietta, Ayala Center, Makati City","+ 63 2 7752 7272
+ 63 2 7795-9595",https://s3-ap-southeast-1.amazonaws.com/interimweb/images/Mall+Photos/Glorietta/Glorietta+01+edited.jpg,facebook.com/ILoveGlorietta,https://s3-ap-southeast-1.amazonaws.com/interimweb/images/Photos/GLORIETTA+LOGO.jpg-Hi+Res.jpg,"{'address_components': [{'long_name': 'Ayala Center', 'short_name': 'Ayala Center', 'types': ['premise']}, {'long_name': '6811', 'short_name': '6811', 'types': ['street_number']}, {'long_name': 'Ayala Avenue', 'short_name': 'Ayala Ave', 'types': ['route']}, {'long_name': 'Makati', 'short_name': 'Makati', 'types': ['locality', 'political']}, {'long_name': 'Metro Manila', 'short_name': 'NCR', 'types': ['administrative_area_level_1', 'political']}, {'long_name': 'Philippines', 'short_name': 'PH', 'types': ['country', 'political']}, {'long_name': '1226', 'short_name': '1226', 'types': ['postal_code']}], 'formatted_address': 'Ayala Center, 6811 Ayala Ave, Makati, 1226 Metro Manila, Philippines', 'geometry': {'location': {'lat': 14.5512398, 'lng': 121.0253682}, 'location_type': 'ROOFTOP', 'viewport': {'northeast': {'lat': 14.5525887802915, 'lng': 121.0267171802915}, 'southwest': {'lat': 14.5498908197085, 'lng': 121.0240192197085}}}, 'place_id': 'ChIJeQv0PhvJlzMRADhQ3HsC3iM', 'plus_code': {'compound_code': 'H22G+F4 Makati, Metro Manila, Philippines', 'global_code': '7Q63H22G+F4'}, 'types': ['establishment', 'point_of_interest', 'shopping_mall']}",14.5512398,121.0253682,"Ayala Center, 6811 Ayala Ave, Makati, 1226 Metro Manila, Philippines",Metro Manila
Alabang Town Center,"Alabang Town Center, Muntinlupa City, 1780",+63 2 7795 9595,https://s3-ap-southeast-1.amazonaws.com/interimweb/images/Mall+Photos/Alabang+Town+Center/ATC+01.jpg,facebook.com/AlabangTownCenter,https://s3-ap-southeast-1.amazonaws.com/interimweb/images/Photos/NewATC_logo.JPG,"{'address_components': [{'long_name': 'Alabang', 'short_name': 'Alabang', 'types': ['political', 'sublocality', 'sublocality_level_1']}, {'long_name': 'Muntinlupa', 'short_name': 'Muntinlupa', 'types': ['locality', 'political']}, {'long_name': 'Metro Manila', 'short_name': 'NCR', 'types': ['administrative_area_level_1', 'political']}, {'long_name': 'Philippines', 'short_name': 'PH', 'types': ['country', 'political']}], 'formatted_address': 'Alabang, Muntinlupa, Metro Manila, Philippines', 'geometry': {'bounds': {'northeast': {'lat': 14.4289332, 'lng': 121.053131}, 'southwest': {'lat': 14.4044033, 'lng': 121.0316982}}, 'location': {'lat': 14.4183645, 'lng': 121.0384987}, 'location_type': 'APPROXIMATE', 'viewport': {'northeast': {'lat': 14.4289332, 'lng': 121.053131}, 'southwest': {'lat': 14.4044033, 'lng': 121.0316982}}}, 'place_id': 'ChIJSdYf2jPQlzMR-O9msGPZYI8', 'types': ['political', 'sublocality', 'sublocality_level_1']}",14.4183645,121.0384987,"Alabang, Muntinlupa, Metro Manila, Philippines",Metro Manila
MarQuee Mall,"MarQuee Mall, Francisco G. Nepomuceno Avenue, Angeles City, Pampanga 2009",+63 45 304 0110 to 0111,https://s3-ap-southeast-1.amazonaws.com/interimweb/images/Mall+Photos/MarQuee+Mall/Marquee+01.jpg,facebook.com/MarqueeMall,https://s3-ap-southeast-1.amazonaws.com/interimweb/images/Photos/Logo+Marquee+Mall.jpg,"{'address_components': [{'long_name': 'Philippines', 'short_name': 'PH', 'types': ['country', 'political']}, {'long_name': 'Angeles', 'short_name': 'AC', 'types': ['locality', 'political']}, {'long_name': 'Pampanga', 'short_name': 'Pampanga', 'types': ['administrative_area_level_2', 'political']}, {'long_name': 'Central Luzon', 'short_name': 'Central Luzon', 'types': ['administrative_area_level_1', 'political']}], 'formatted_address': 'Francisco G. Nepomuceno Ave., Pulung, Maragul, Angeles City 2009, Angeles, Pampanga, Philippines', 'geometry': {'location': {'lat': 15.162638, 'lng': 120.609509}, 'location_type': 'GEOMETRIC_CENTER', 'viewport': {'northeast': {'lat': 15.1639869802915, 'lng': 120.6108579802915}, 'southwest': {'lat': 15.1612890197085, 'lng': 120.6081600197085}}}, 'place_id': 'ChIJIxI9xAfyljMRhPEgCQy2p0s', 'plus_code': {'compound_code': '5J75+3R Angeles, Pampanga, Philippines', 'global_code': '7Q725J75+3R'}, 'types': ['establishment', 'point_of_interest']}",15.162638,120.609509,"Francisco G. Nepomuceno Ave., Pulung, Maragul, Angeles City 2009, Angeles, Pampanga, Philippines",Pampanga
Greenbelt,"Greenbelt Mall, Legazpi Street, Makati City","+63 2 7795-9595
+63 2 7729 2137",https://s3-ap-southeast-1.amazonaws.com/interimweb/images/Mall+Photos/Greenbelt/Greenbelt+01+edited.jpg,facebook.com/Greenbelt.Ayala Malls,https://s3-ap-southeast-1.amazonaws.com/interimweb/images/Photos/GB+Logo.jpg,"{'address_components': [{'long_name': 'Legazpi Street', 'short_name': 'Legazpi Street', 'types': ['route']}, {'long_name': 'Makati', 'short_name': 'Makati', 'types': ['locality', 'political']}, {'long_name': 'Kalakhang Maynila', 'short_name': 'NCR', 'types': ['administrative_area_level_1', 'political']}, {'long_name': 'Philippines', 'short_name': 'PH', 'types': ['country', 'political']}], 'formatted_address': 'Legazpi Street, Makati, Kalakhang Maynila, Philippines', 'geometry': {'location': {'lat': 14.5529302, 'lng': 121.0210029}, 'location_type': 'GEOMETRIC_CENTER', 'viewport': {'northeast': {'lat': 14.5542791802915, 'lng': 121.0223518802915}, 'southwest': {'lat': 14.5515812197085, 'lng': 121.0196539197085}}}, 'place_id': 'ChIJYe1vMg7JlzMRJ3T2MLaxBf4', 'plus_code': {'compound_code': 'H23C+5C Makati, Metro Manila, Philippines', 'global_code': '7Q63H23C+5C'}, 'types': ['establishment', 'point_of_interest', 'shopping_mall']}",14.5529302,121.0210029,"Legazpi Street, Makati, Kalakhang Maynila, Philippines",Metro Manila
TriNoma,"TriNoma EDSA cor. North Avenue, QC","+ 63 2 7901 3000
+63 2 7795 9595",https://s3-ap-southeast-1.amazonaws.com/interimweb/images/Mall+Photos/TriNoma/Trinoma+01.jpg,facebook.com/TriNoma.Ayala Malls,https://s3-ap-southeast-1.amazonaws.com/interimweb/images/Photos/logo_TRINOMA.jpg,"{'address_components': [{'long_name': 'Trimona Mall', 'short_name': 'Trimona Mall', 'types': ['establishment', 'point_of_interest']}, {'long_name': '173', 'short_name': '173', 'types': ['street_number']}, {'long_name': 'Epifanio de los Santos Avenue', 'short_name': 'EDSA', 'types': ['route']}, {'long_name': 'Quezon City', 'short_name': 'QC', 'types': ['locality', 'political']}, {'long_name': 'Metro Manila', 'short_name': 'NCR', 'types': ['administrative_area_level_1', 'political']}, {'long_name': 'Philippines', 'short_name': 'PH', 'types': ['country', 'political']}, {'long_name': '1105', 'short_name': '1105', 'types': ['postal_code']}], 'formatted_address': 'EDSA corner, Trimona Mall, 173 Epifanio de los Santos Ave, Quezon City, 1105 Metro Manila, Philippines', 'geometry': {'location': {'lat': 14.651318, 'lng': 121.0342935}, 'location_type': 'ROOFTOP', 'viewport': {'northeast': {'lat': 14.6526669802915, 'lng': 121.0356424802915}, 'southwest': {'lat': 14.6499690197085, 'lng': 121.0329445197085}}}, 'place_id': 'ChIJV-alYv22lzMRo0yq2q7ztWw', 'plus_code': {'compound_code': 'M22M+GP Quezon City, Metro Manila, Philippines', 'global_code': '7Q63M22M+GP'}, 'types': ['establishment', 'point_of_interest', 'shopping_mall']}",14.651318,121.0342935,"EDSA corner, Trimona Mall, 173 Epifanio de los Santos Ave, Quezon City, 1105 Metro Manila, Philippines",Metro Manila
Ayala Center Cebu,"Cebu Business Park, Archbishop Reyes Ave. Cebu City 6000",+63 32 888 3777,https://s3-ap-southeast-1.amazonaws.com/interimweb/images/Mall+Photos/Ayala+Center+Cebu/ACC+01.jpg,facebook.com/AyalaCebu,https://s3-ap-southeast-1.amazonaws.com/interimweb/images/Photos/new+ACC+Logo+(April).JPG,"{'address_components': [{'long_name': '6000', 'short_name': '6000', 'types': ['street_number']}, {'long_name': 'Archbishop Reyes Avenue', 'short_name': 'Archbishop Reyes Ave', 'types': ['route']}, {'long_name': 'Cebu City', 'short_name': 'Cebu City', 'types': ['locality', 'political']}, {'long_name': 'Cebu', 'short_name': 'Cebu', 'types': ['administrative_area_level_2', 'political']}, {'long_name': 'Central Visayas', 'short_name': 'Central Visayas', 'types': ['administrative_area_level_1', 'political']}, {'long_name': 'Philippines', 'short_name': 'PH', 'types': ['country', 'political']}, {'long_name': '6000', 'short_name': '6000', 'types': ['postal_code']}], 'formatted_address': 'L6, Metro Gaissno Ayala Center, Food Avenue, Kiosk , Ayala Mall Cebu, 6000 Archbishop Reyes Ave, Cebu City, 6000 Cebu, Philippines', 'geometry': {'location': {'lat': 10.3176631, 'lng': 123.9039931}, 'location_type': 'ROOFTOP', 'viewport': {'northeast': {'lat': 10.3190120802915, 'lng': 123.9053420802915}, 'southwest': {'lat': 10.3163141197085, 'lng': 123.9026441197085}}}, 'place_id': 'ChIJoXVhPT-ZqTMRHozTt6nsIwM', 'plus_code': {'compound_code': '8W93+3H Cebu City, Cebu, Philippines', 'global_code': '7Q258W93+3H'}, 'types': ['establishment', 'food', 'point_of_interest']}",10.3176631,123.9039931,"L6, Metro Gaissno Ayala Center, Food Avenue, Kiosk , Ayala Mall Cebu, 6000 Archbishop Reyes Ave, Cebu City, 6000 Cebu, Philippines",Cebu
Market! Market!,"McKinley Parkway, Bonifacio Global City, Taguig 1634",+ 63 2 7795 9595 local 1903,https://s3-ap-southeast-1.amazonaws.com/interimweb/images/Mall+Photos/Market!+Market!/M2+01.jpg,facebook.com/MarketMarket,https://s3-ap-southeast-1.amazonaws.com/interimweb/images/Photos/Market!+Market!+logo.png,"{'address_components': [{'long_name': '1634', 'short_name': '1634', 'types': ['street_number']}, {'long_name': 'McKinley Parkway', 'short_name': 'McKinley Pkwy', 'types': ['route']}, {'long_name': 'Taguig', 'short_name': 'Taguig', 'types': ['locality', 'political']}, {'long_name': 'Metro Manila', 'short_name': 'NCR', 'types': ['administrative_area_level_1', 'political']}, {'long_name': 'Philippines', 'short_name': 'PH', 'types': ['country', 'political']}], 'formatted_address': 'SM Aura Premier, 1634 McKinley Pkwy, Taguig, Metro Manila, Philippines', 'geometry': {'location': {'lat': 14.546298, 'lng': 121.054461}, 'location_type': 'ROOFTOP', 'viewport': {'northeast': {'lat': 14.5476469802915, 'lng': 121.0558099802915}, 'southwest': {'lat': 14.5449490197085, 'lng': 121.0531120197085}}}, 'place_id': 'ChIJw0piEO3IlzMR1aNnAKVXbw8', 'plus_code': {'compound_code': 'G3W3+GQ Taguig, Metro Manila, Philippines', 'global_code': '7Q63G3W3+GQ'}, 'types': ['bakery', 'establishment', 'food', 'point_of_interest', 'store']}",14.546298,121.054461,"SM Aura Premier, 1634 McKinley Pkwy, Taguig, Metro Manila, Philippines",Metro Manila
Bonifacio High Street,"Bonifacio Global City, Taguig",+ 63 2 478 8669,https://s3-ap-southeast-1.amazonaws.com/interimweb/images/Mall+Photos/Bonifacio+High+Street/BHS+01.jpg,facebook.com/BoniHighStreet,https://s3-ap-southeast-1.amazonaws.com/interimweb/images/Photos/BHS+logo+-+vertical.JPG,"{'address_components': [{'long_name': 'Bonifacio Global City', 'short_name': 'Bonifacio Global City', 'types': ['neighborhood', 'political']}, {'long_name': 'Taguig', 'short_name': 'Taguig', 'types': ['locality', 'political']}, {'long_name': 'Metro Manila', 'short_name': 'NCR', 'types': ['administrative_area_level_1', 'political']}, {'long_name': 'Philippines', 'short_name': 'PH', 'types': ['country', 'political']}], 'formatted_address': 'Bonifacio Global City, Taguig, Metro Manila, Philippines', 'geometry': {'bounds': {'northeast': {'lat': 14.5620393, 'lng': 121.0609167}, 'southwest': {'lat': 14.5241836, 'lng': 121.022172}}, 'location': {'lat': 14.5408671, 'lng': 121.0503183}, 'location_type': 'APPROXIMATE', 'viewport': {'northeast': {'lat': 14.5620393, 'lng': 121.0609167}, 'southwest': {'lat': 14.5241836, 'lng': 121.022172}}}, 'place_id': 'ChIJr5Qp-vPIlzMRCuRgR6-IyYk', 'types': ['neighborhood', 'political']}",14.5408671,121.0503183,"Bonifacio Global City, Taguig, Metro Manila, Philippines",Metro Manila
Fairview Terraces,"Quirino Highway corner Maligaya Drive, Barangay Pasong Putik Novaliches, Quezon City 1118",+63 2 956 3888,https://s3-ap-southeast-1.amazonaws.com/interimweb/images/Mall+Photos/Fairview+Terraces/FT+01.jpg,facebook.com/FairviewTerraces,https://s3-ap-southeast-1.amazonaws.com/interimweb/images/Photos/FT+logo.jpg,"{'address_components': [{'long_name': 'Quezon City', 'short_name': 'QC', 'types': ['locality', 'political']}, {'long_name': 'Novaliches', 'short_name': 'Novaliches', 'types': ['political', 'sublocality', 'sublocality_level_1']}, {'long_name': 'Metro Manila', 'short_name': 'NCR', 'types': ['administrative_area_level_1', 'political']}, {'long_name': 'Philippines', 'short_name': 'PH', 'types': ['country', 'political']}, {'long_name': '1123', 'short_name': '1123', 'types': ['postal_code']}], 'formatted_address': 'Quirino Highway, Pasong Putik Proper, Novaliches, Quezon City, 1123 Metro Manila, Philippines', 'geometry': {'location': {'lat': 14.7362904, 'lng': 121.0608575}, 'location_type': 'GEOMETRIC_CENTER', 'viewport': {'northeast': {'lat': 14.7376393802915, 'lng': 121.0622064802915}, 'southwest': {'lat': 14.7349414197085, 'lng': 121.0595085197085}}}, 'place_id': 'ChIJkyaxIWmwlzMRxMczEoh_cRQ', 'plus_code': {'compound_code': 'P3P6+G8 Quezon City, Metro Manila, Philippines', 'global_code': '7Q63P3P6+G8'}, 'types': ['establishment', 'point_of_interest']}",14.7362904,121.0608575,"Quirino Highway, Pasong Putik Proper, Novaliches, Quezon City, 1123 Metro Manila, Philippines",Metro Manila
U. P. Town Center,"249, U.P. Town Center, 216 Katipunan Ave., Diliman, Quezon City",+63 2 795 9595 local 1904,https://s3-ap-southeast-1.amazonaws.com/interimweb/images/Mall+Photos/U.P.+Town+Center/UPTC+01.jpg,facebook.com/UPTownCenterAyalaMalls,https://s3-ap-southeast-1.amazonaws.com/interimweb/images/Photos/UPTC+Logo+final.jpg,"{'address_components': [{'long_name': '249', 'short_name': '249', 'types': ['subpremise']}, {'long_name': '216', 'short_name': '216', 'types': ['street_number']}, {'long_name': 'Katipunan Avenue', 'short_name': 'Katipunan Ave', 'types': ['route']}, {'long_name': 'Diliman', 'short_name': 'Diliman', 'types': ['political', 'sublocality', 'sublocality_level_1']}, {'long_name': 'Quezon City', 'short_name': 'QC', 'types': ['locality', 'political']}, {'long_name': 'Metro Manila', 'short_name': 'NCR', 'types': ['administrative_area_level_1', 'political']}, {'long_name': 'Philippines', 'short_name': 'PH', 'types': ['country', 'political']}, {'long_name': '1108', 'short_name': '1108', 'types': ['postal_code']}], 'formatted_address': '249, 216 Katipunan Ave, Diliman, Quezon City, 1108 Metro Manila, Philippines', 'geometry': {'location': {'lat': 14.6507422, 'lng': 121.0752145}, 'location_type': 'ROOFTOP', 'viewport': {'northeast': {'lat': 14.6520911802915, 'lng': 121.0765634802915}, 'southwest': {'lat': 14.6493932197085, 'lng': 121.0738655197085}}}, 'place_id': 'ChIJHao_OWO3lzMRjOuMs_XND84', 'plus_code': {'compound_code': 'M32G+73 Quezon City, Metro Manila, Philippines', 'global_code': '7Q63M32G+73'}, 'types': ['establishment', 'point_of_interest', 'shopping_mall']}",14.6507422,121.0752145,"249, 216 Katipunan Ave, Diliman, Quezon City, 1108 Metro Manila, Philippines",Metro Manila
Ayala Malls Solenad,"Nuvali, Brgy. Sto. Domingo, City of Santa Rosa, Laguna",,https://s3-ap-southeast-1.amazonaws.com/interimweb/images/Photos/5V8B1407.jpg,,https://s3-ap-southeast-1.amazonaws.com/interimweb/images/Photos/AM+Solenad.png,"{'address_components': [{'long_name': 'Fort Santo Domingo', 'short_name': 'Fort Santo Domingo', 'types': ['premise']}, {'long_name': 'Santa Rosa - Tagaytay Road', 'short_name': 'Santa Rosa - Tagaytay Rd', 'types': ['route']}, {'long_name': 'Don Jose', 'short_name': 'Don Jose', 'types': ['political', 'sublocality', 'sublocality_level_1']}, {'long_name': 'Santa Rosa', 'short_name': 'Sta. Rosa', 'types': ['locality', 'political']}, {'long_name': 'Laguna', 'short_name': 'Laguna', 'types': ['administrative_area_level_2', 'political']}, {'long_name': 'Calabarzon', 'short_name': 'Calabarzon', 'types': ['administrative_area_level_1', 'political']}, {'long_name': 'Philippines', 'short_name': 'PH', 'types': ['country', 'political']}], 'formatted_address': 'Nuvali, Brgy, Fort Santo Domingo, Santa Rosa - Tagaytay Rd, Don Jose, Santa Rosa, Laguna, Philippines', 'geometry': {'location': {'lat': 14.2383832, 'lng': 121.056297}, 'location_type': 'ROOFTOP', 'viewport': {'northeast': {'lat': 14.2397321802915, 'lng': 121.0576459802915}, 'southwest': {'lat': 14.2370342197085, 'lng': 121.0549480197085}}}, 'place_id': 'ChIJXW88ABh9vTMRu1honZBNuvE', 'plus_code': {'compound_code': '63Q4+9G Santa Rosa, Laguna, Philippines', 'global_code': '7Q6363Q4+9G'}, 'types': ['establishment', 'point_of_interest', 'shopping_mall']}",14.2383832,121.056297,"Nuvali, Brgy, Fort Santo Domingo, Santa Rosa - Tagaytay Rd, Don Jose, Santa Rosa, Laguna, Philippines",Laguna
Harbor Point,"Subic Bay, Rizal Highway, Subic Bay Freeport Zone, 2200 Zambales",+63 47 250 8888 (Main Concierge) or +63 47 250 2524 (Satellite) | Globe +63 2 759 9595 | Smart +63 2 786 9595 | Toll Free - 1800-10-786-9595,https://s3-ap-southeast-1.amazonaws.com/interimweb/images/Mall+Photos/Harbor+Point/Harbor+Point+01.jpg,facebook.com/HarborPointMall,https://s3-ap-southeast-1.amazonaws.com/interimweb/images/Photos/Hires+Harbor+Point+Logo.jpg,"{'address_components': [{'long_name': 'Rizal Highway', 'short_name': 'Rizal Hwy', 'types': ['route']}, {'long_name': 'Subic Bay Freeport Zone', 'short_name': 'Subic Bay Freeport Zone', 'types': ['locality', 'political']}, {'long_name': 'Zambales', 'short_name': 'Zambales', 'types': ['administrative_area_level_2', 'political']}, {'long_name': 'Central Luzon', 'short_name': 'Central Luzon', 'types': ['administrative_area_level_1', 'political']}, {'long_name': 'Philippines', 'short_name': 'PH', 'types': ['country', 'political']}, {'long_name': '2200', 'short_name': '2200', 'types': ['postal_code']}], 'formatted_address': '2F SUBIC BAY TOW, Rizal Hwy, Subic Bay Freeport Zone, 2200 Zambales, Philippines', 'geometry': {'location': {'lat': 14.8249621, 'lng': 120.2803596}, 'location_type': 'GEOMETRIC_CENTER', 'viewport': {'northeast': {'lat': 14.8263110802915, 'lng': 120.2817085802915}, 'southwest': {'lat': 14.8236131197085, 'lng': 120.2790106197085}}}, 'place_id': 'ChIJqzsg0xBxljMRmjMLf9xpMa8', 'plus_code': {'compound_code': 'R7FJ+X4 Subic Bay Freeport Zone, Philippines', 'global_code': '7Q62R7FJ+X4'}, 'types': ['establishment', 'point_of_interest', 'shopping_mall', 'store']}",14.8249621,120.2803596,"2F SUBIC BAY TOW, Rizal Hwy, Subic Bay Freeport Zone, 2200 Zambales, Philippines",Zambales
Abreeza,"J.P. Laurel Ave., Davao City",+ 63 82 321 9332,https://s3-ap-southeast-1.amazonaws.com/interimweb/images/Mall+Photos/Abreeza+Mall/Abreeza+01.jpg,facebook.com/AbreezaMall,https://s3-ap-southeast-1.amazonaws.com/interimweb/images/Photos/ayala+abreeza+logo2018.png,"{'address_components': [{'long_name': 'J.P. Laurel Avenue', 'short_name': 'J.P. Laurel Ave', 'types': ['route']}, {'long_name': 'Davao City', 'short_name': 'Davao City', 'types': ['locality', 'political']}, {'long_name': 'Davao del Sur', 'short_name': 'Davao del Sur', 'types': ['administrative_area_level_2', 'political']}, {'long_name': 'Davao Region', 'short_name': 'Davao Region', 'types': ['administrative_area_level_1', 'political']}, {'long_name': 'Philippines', 'short_name': 'PH', 'types': ['country', 'political']}], 'formatted_address': 'J.P. Laurel Ave, Davao City, Davao del Sur, Philippines', 'geometry': {'bounds': {'northeast': {'lat': 7.1060273, 'lng': 125.6450859}, 'southwest': {'lat': 7.0731274, 'lng': 125.6095474}}, 'location': {'lat': 7.098799800000001, 'lng': 125.624445}, 'location_type': 'GEOMETRIC_CENTER', 'viewport': {'northeast': {'lat': 7.1060273, 'lng': 125.6450859}, 'southwest': {'lat': 7.0731274, 'lng': 125.6095474}}}, 'place_id': 'ChIJk5twP7Rt-TIRQMUPzeUDBKg', 'types': ['route']}",7.098799800000001,125.624445,"J.P. Laurel Ave, Davao City, Davao del Sur, Philippines",Davao del Sur
Centrio Mall,"Centrio Mall, CM Recto – Corrales Avenue, Cagayan de Oro City 9000",+ 63 88 323 4000 local 6473 (CM Recto Concierge) 6472 (Corrales Concierge),https://s3-ap-southeast-1.amazonaws.com/interimweb/images/Mall+Photos/Centrio+Mall/Centrio+01.jpg,facebook.com/AyalaCentrioMall,https://s3-ap-southeast-1.amazonaws.com/interimweb/images/Photos/Centrio+Mall+Logo.jpg,"{'address_components': [{'long_name': 'corner', 'short_name': 'corner', 'types': ['street_number']}, {'long_name': 'Corrales Avenue', 'short_name': 'Corrales Ave', 'types': ['route']}, {'long_name': 'Cagayan de Oro', 'short_name': 'CDO', 'types': ['locality', 'political']}, {'long_name': 'Misamis Oriental', 'short_name': 'Misamis Oriental', 'types': ['administrative_area_level_2', 'political']}, {'long_name': 'Northern Mindanao', 'short_name': 'Northern Mindanao', 'types': ['administrative_area_level_1', 'political']}, {'long_name': 'Philippines', 'short_name': 'PH', 'types': ['country', 'political']}, {'long_name': '9000', 'short_name': '9000', 'types': ['postal_code']}], 'formatted_address': 'Claro M. Recto Avenue, corner Corrales Ave, Cagayan de Oro, 9000 Misamis Oriental, Philippines', 'geometry': {'location': {'lat': 8.4850078, 'lng': 124.6512041}, 'location_type': 'ROOFTOP', 'viewport': {'northeast': {'lat': 8.486356780291501, 'lng': 124.6525530802915}, 'southwest': {'lat': 8.483658819708497, 'lng': 124.6498551197085}}}, 'place_id': 'ChIJJ-F_4dzy_zIRP8Q_gyWz37c', 'plus_code': {'compound_code': 'FMP2+2F Cagayan de Oro, Misamis Oriental, Philippines', 'global_code': '6QW6FMP2+2F'}, 'types': ['establishment', 'point_of_interest', 'shopping_mall']}",8.4850078,124.6512041,"Claro M. Recto Avenue, corner Corrales Ave, Cagayan de Oro, 9000 Misamis Oriental, Philippines",Misamis Oriental
Ayala Malls Serin,"Gen. Emilio Aguinaldo Highway Brgy. Silang Crossing East Tagaytay City, Cavite 4120",+ 63 46 544 0279,https://s3-ap-southeast-1.amazonaws.com/interimweb/images/Photos/Serin+1.jpg,facebook.com/AyalaMallsSerin,https://s3-ap-southeast-1.amazonaws.com/interimweb/images/Photos/AM+Serin.png,"{'address_components': [{'long_name': 'Emilio Aguinaldo Highway', 'short_name': 'Emilio Aguinaldo Hwy', 'types': ['route']}, {'long_name': 'Silang Junction North', 'short_name': 'Silang Junction North', 'types': ['political', 'sublocality', 'sublocality_level_1']}, {'long_name': 'Tagaytay', 'short_name': 'Tagaytay', 'types': ['locality', 'political']}, {'long_name': 'Cavite', 'short_name': 'Cavite', 'types': ['administrative_area_level_2', 'political']}, {'long_name': 'Calabarzon', 'short_name': 'Calabarzon', 'types': ['administrative_area_level_1', 'political']}, {'long_name': 'Philippines', 'short_name': 'PH', 'types': ['country', 'political']}, {'long_name': '4120', 'short_name': '4120', 'types': ['postal_code']}], 'formatted_address': 'Emilio Aguinaldo Hwy, Silang Junction North, Tagaytay, 4120 Cavite, Philippines', 'geometry': {'location': {'lat': 14.1156535, 'lng': 120.9610328}, 'location_type': 'GEOMETRIC_CENTER', 'viewport': {'northeast': {'lat': 14.1170024802915, 'lng': 120.9623817802915}, 'southwest': {'lat': 14.1143045197085, 'lng': 120.9596838197085}}}, 'place_id': 'ChIJR91VoWF3vTMRv-UsfCrlECQ', 'plus_code': {'compound_code': '4X86+7C Tagaytay, Cavite, Philippines', 'global_code': '7Q624X86+7C'}, 'types': ['establishment', 'hospital', 'point_of_interest']}",14.1156535,120.9610328,"Emilio Aguinaldo Hwy, Silang Junction North, Tagaytay, 4120 Cavite, Philippines",Cavite
Ayala Malls The 30th,30 Meralco Ave. Brgy. Ugong Pasig City 1604,+63 2 795 9595 local 1915,https://s3-ap-southeast-1.amazonaws.com/interimweb/images/Mall+Photos/Ayala+Malls+The+30th/The+30th+01.jpg,facebook.com/AyalaMallsthe30th,https://s3-ap-southeast-1.amazonaws.com/interimweb/images/Photos/AM+30th.png,"{'address_components': [{'long_name': '30', 'short_name': '30', 'types': ['street_number']}, {'long_name': 'Meralco Avenue', 'short_name': 'Meralco Ave', 'types': ['route']}, {'long_name': 'San Antonio', 'short_name': 'Brgy San Antonio', 'types': ['political', 'sublocality', 'sublocality_level_1']}, {'long_name': 'Pasig', 'short_name': 'Pasig', 'types': ['locality', 'political']}, {'long_name': 'Metro Manila', 'short_name': 'NCR', 'types': ['administrative_area_level_1', 'political']}, {'long_name': 'Philippines', 'short_name': 'PH', 'types': ['country', 'political']}], 'formatted_address': '30 Meralco Ave, San Antonio, Pasig, Metro Manila, Philippines', 'geometry': {'location': {'lat': 14.5806551, 'lng': 121.0639095}, 'location_type': 'ROOFTOP', 'viewport': {'northeast': {'lat': 14.5820040802915, 'lng': 121.0652584802915}, 'southwest': {'lat': 14.5793061197085, 'lng': 121.0625605197085}}}, 'place_id': 'ChIJ_XRHoRPIlzMRlG-w7RdkOHU', 'plus_code': {'compound_code': 'H3J7+7H Pasig, Metro Manila, Philippines', 'global_code': '7Q63H3J7+7H'}, 'types': ['street_address']}",14.5806551,121.0639095,"30 Meralco Ave, San Antonio, Pasig, Metro Manila, Philippines",Metro Manila
Ayala Malls Legazpi,"Rizal Street corner Quezon Ave., Barangay Capantawan, Legazpi City, Albay 4500",+ 63 52 201 0400 local 6093,https://s3-ap-southeast-1.amazonaws.com/interimweb/images/Photos/LGP1.png,facebook.com/AyalaMallsLegazpiOfficial,https://s3-ap-southeast-1.amazonaws.com/interimweb/images/Photos/AM+Legazpi.png,"{'address_components': [{'long_name': 'corner', 'short_name': 'corner', 'types': ['street_number']}, {'long_name': 'Quezon Avenue', 'short_name': 'Quezon Ave', 'types': ['route']}, {'long_name': 'Brgy. Capantawan', 'short_name': 'Brgy. Capantawan', 'types': ['political', 'sublocality', 'sublocality_level_1']}, {'long_name': 'Legazpi City', 'short_name': 'Legazpi City', 'types': ['locality', 'political']}, {'long_name': 'Albay', 'short_name': 'Albay', 'types': ['administrative_area_level_2', 'political']}, {'long_name': 'Bicol', 'short_name': 'Bicol', 'types': ['administrative_area_level_1', 'political']}, {'long_name': 'Philippines', 'short_name': 'PH', 'types': ['country', 'political']}, {'long_name': '4500', 'short_name': '4500', 'types': ['postal_code']}], 'formatted_address': '3/F Ayala Mall Legazpi, Rizal St, corner Quezon Ave, Brgy. Capantawan, Legazpi City, 4500 Albay, Philippines', 'geometry': {'location': {'lat': 13.1473031, 'lng': 123.7525923}, 'location_type': 'ROOFTOP', 'viewport': {'northeast': {'lat': 13.1486520802915, 'lng': 123.7539412802915}, 'southwest': {'lat': 13.1459541197085, 'lng': 123.7512433197085}}}, 'place_id': 'ChIJb7f91IEBoTMRHzSyRS7-Fig', 'plus_code': {'compound_code': '4QW3+W2 Legazpi City, Albay, Philippines', 'global_code': '7Q554QW3+W2'}, 'types': ['establishment', 'hardware_store', 'point_of_interest', 'store']}",13.1473031,123.7525923,"3/F Ayala Mall Legazpi, Rizal St, corner Quezon Ave, Brgy. Capantawan, Legazpi City, 4500 Albay, Philippines",Albay
Ayala Malls South Park,"National Road, Brgy. Alabang, Muntinlupa City",+ 63 2 944 65 88 loc. 1918,https://s3-ap-southeast-1.amazonaws.com/interimweb/images/Photos/AMSouthPark+Facade.jpg,facebook.com/ilovesouthparkmall,https://s3-ap-southeast-1.amazonaws.com/interimweb/images/Photos/AM+South+Park.png,"{'address_components': [{'long_name': 'National Road', 'short_name': 'National Road', 'types': ['route']}, {'long_name': 'Alabang', 'short_name': 'Alabang', 'types': ['political', 'sublocality', 'sublocality_level_1']}, {'long_name': 'Muntinlupa', 'short_name': 'Muntinlupa', 'types': ['locality', 'political']}, {'long_name': 'Metro Manila', 'short_name': 'NCR', 'types': ['administrative_area_level_1', 'political']}, {'long_name': 'Philippines', 'short_name': 'PH', 'types': ['country', 'political']}], 'formatted_address': 'National Road, Alabang, Muntinlupa, Metro Manila, Philippines', 'geometry': {'bounds': {'northeast': {'lat': 14.4171991, 'lng': 121.0470427}, 'southwest': {'lat': 14.4039329, 'lng': 121.0452072}}, 'location': {'lat': 14.410105, 'lng': 121.0462448}, 'location_type': 'GEOMETRIC_CENTER', 'viewport': {'northeast': {'lat': 14.4171991, 'lng': 121.0474739302915}, 'southwest': {'lat': 14.4039329, 'lng': 121.0447759697085}}}, 'place_id': 'Ej1OYXRpb25hbCBSb2FkLCBBbGFiYW5nLCBNdW50aW5sdXBhLCBNZXRybyBNYW5pbGEsIFBoaWxpcHBpbmVzIi4qLAoUChIJbcNEE0XQlzMRY62i0j7n33USFAoSCUnWH9oz0JczEfjvZrBj2WCP', 'types': ['route']}",14.410105,121.0462448,"National Road, Alabang, Muntinlupa, Metro Manila, Philippines",Metro Manila
Ayala Malls Vertis North,"Ayala Malls Vertis North, Phase 1 & 2, North Avenue, Brgy. Bagong Pag-asa, Q.C.",+ 63 2 718 5000 loc 6366,https://s3-ap-southeast-1.amazonaws.com/interimweb/images/Photos/Lux+Mall+Entrance+(Night).JPG,facebook.com/AyalaMallsVertisNorth,https://s3-ap-southeast-1.amazonaws.com/interimweb/images/Photos/AM+Vertis+North.png,"{'address_components': [{'long_name': 'Quezon City', 'short_name': 'QC', 'types': ['locality', 'political']}, {'long_name': 'Metro Manila', 'short_name': 'NCR', 'types': ['administrative_area_level_1', 'political']}, {'long_name': 'Philippines', 'short_name': 'PH', 'types': ['country', 'political']}], 'formatted_address': 'North Avenue Brgy, Quezon City, Metro Manila, Philippines', 'geometry': {'location': {'lat': 14.6516064, 'lng': 121.0357858}, 'location_type': 'GEOMETRIC_CENTER', 'viewport': {'northeast': {'lat': 14.6529553802915, 'lng': 121.0371347802915}, 'southwest': {'lat': 14.6502574197085, 'lng': 121.0344368197085}}}, 'place_id': 'ChIJb5O1NB23lzMRjulPQvLq7BA', 'plus_code': {'compound_code': 'M22P+J8 Quezon City, Metro Manila, Philippines', 'global_code': '7Q63M22P+J8'}, 'types': ['establishment', 'point_of_interest', 'shopping_mall']}",14.6516064,121.0357858,"North Avenue Brgy, Quezon City, Metro Manila, Philippines",Metro Manila
Ayala Malls Cloverleaf,"Ayala Malls Cloverleaf, A. Bonifacio Ave., Brgy. Balingasa, Quezon City",+ 63 2 7755 7900 loc 6113,https://s3-ap-southeast-1.amazonaws.com/interimweb/images/Photos/Cloverleaf+1.JPG,facebook.com/AyalaMallsCloverleaf,https://s3-ap-southeast-1.amazonaws.com/interimweb/images/Photos/AM+Cloverleaf.png,"{'address_components': [{'long_name': 'A. Bonifacio', 'short_name': 'A. Bonifacio', 'types': ['political', 'sublocality', 'sublocality_level_1']}, {'long_name': 'Quezon City', 'short_name': 'QC', 'types': ['locality', 'political']}, {'long_name': 'Metro Manila', 'short_name': 'NCR', 'types': ['administrative_area_level_1', 'political']}, {'long_name': 'Philippines', 'short_name': 'PH', 'types': ['country', 'political']}], 'formatted_address': '3rd Level, Ayala Malls Cloverleaf A. Bonifacio Street, Brgy, A. Bonifacio, Quezon City, Metro Manila, Philippines', 'geometry': {'location': {'lat': 14.6556412, 'lng': 121.0001136}, 'location_type': 'GEOMETRIC_CENTER', 'viewport': {'northeast': {'lat': 14.6569901802915, 'lng': 121.0014625802915}, 'southwest': {'lat': 14.6542922197085, 'lng': 120.9987646197085}}}, 'place_id': 'ChIJ4x1AEIa2lzMRmjGJVm_GFoQ', 'plus_code': {'compound_code': 'M242+72 Quezon City, Metro Manila, Philippines', 'global_code': '7Q63M242+72'}, 'types': ['establishment', 'point_of_interest', 'store']}",14.6556412,121.0001136,"3rd Level, Ayala Malls Cloverleaf A. Bonifacio Street, Brgy, A. Bonifacio, Quezon City, Metro Manila, Philippines",Metro Manila
Ayala Malls Feliz,"Amang Rodriguez cor. J.P. Rizal, Brgy. Dela Paz, Pasig City",,https://s3-ap-southeast-1.amazonaws.com/interimweb/images/Photos/34016857_579965182378280_939022804597080064_n.jpg,facebook.com/AyalaMallsFeliz,https://s3-ap-southeast-1.amazonaws.com/interimweb/images/Photos/AM+Feliz.png,"{'address_components': [{'long_name': 'Eulogio Amang Rodriguez Avenue', 'short_name': 'Eulogio Amang Rodriguez Ave', 'types': ['route']}, {'long_name': 'Pasig', 'short_name': 'Pasig', 'types': ['locality', 'political']}, {'long_name': 'Metro Manila', 'short_name': 'NCR', 'types': ['administrative_area_level_1', 'political']}, {'long_name': 'Philippines', 'short_name': 'PH', 'types': ['country', 'political']}], 'formatted_address': 'Eulogio Amang Rodriguez Ave, Pasig, Metro Manila, Philippines', 'geometry': {'bounds': {'northeast': {'lat': 14.6186912, 'lng': 121.0925465}, 'southwest': {'lat': 14.6069313, 'lng': 121.0919286}}, 'location': {'lat': 14.6135005, 'lng': 121.0922217}, 'location_type': 'GEOMETRIC_CENTER', 'viewport': {'northeast': {'lat': 14.6186912, 'lng': 121.0935865302915}, 'southwest': {'lat': 14.6069313, 'lng': 121.0908885697085}}}, 'partial_match': True, 'place_id': 'EjZFdWxvZ2lvIEFtYW5nIFJvZHJpZ3VleiBBdmUsIE1ldHJvIE1hbmlsYSwgUGhpbGlwcGluZXMiLiosChQKEgljDaJJBbiXMxEvS0Wz6MS-IBIUChIJ4eySED64lzMRPlkVXQvW9bo', 'types': ['route']}",14.6135005,121.0922217,"Eulogio Amang Rodriguez Ave, Pasig, Metro Manila, Philippines",Metro Manila
Ayala Malls Marikina,"Liwasang Kalayaan, Brgy. Marikina Heights, Marikina City",,https://s3-ap-southeast-1.amazonaws.com/interimweb/images/Photos/AM+Marikina+2.jpg,facebook.com/AyalaMallsMarikina,https://s3-ap-southeast-1.amazonaws.com/interimweb/images/Photos/AM+Marikina.png,"{'address_components': [{'long_name': 'Liwasang Kalayaan', 'short_name': 'Liwasang Kalayaan', 'types': ['route']}, {'long_name': 'Marikina', 'short_name': 'Marikina', 'types': ['locality', 'political']}, {'long_name': 'Metro Manila', 'short_name': 'NCR', 'types': ['administrative_area_level_1', 'political']}, {'long_name': 'Philippines', 'short_name': 'PH', 'types': ['country', 'political']}, {'long_name': '1800', 'short_name': '1800', 'types': ['postal_code']}], 'formatted_address': 'Liwasang Kalayaan, Marikina, 1800 Metro Manila, Philippines', 'geometry': {'bounds': {'northeast': {'lat': 14.6510825, 'lng': 121.1173355}, 'southwest': {'lat': 14.6476384, 'lng': 121.1144706}}, 'location': {'lat': 14.6489039, 'lng': 121.1146571}, 'location_type': 'GEOMETRIC_CENTER', 'viewport': {'northeast': {'lat': 14.6510825, 'lng': 121.1173355}, 'southwest': {'lat': 14.6476384, 'lng': 121.1144706}}}, 'place_id': 'ChIJD0tAbaO5lzMRq-larmnOl5s', 'types': ['route']}",14.6489039,121.1146571,"Liwasang Kalayaan, Marikina, 1800 Metro Manila, Philippines",Metro Manila
Ayala Malls Circuit,"Ayala Malls Circuit, Circuit Makati, Hippodromo, Carmona, Makati City",+63 2 7759 7900 loc 6550,https://s3-ap-southeast-1.amazonaws.com/interimweb/images/Photos/Circuit+1.jpg,facebook.com/AyalaMallsCircuit,https://s3-ap-southeast-1.amazonaws.com/interimweb/images/Photos/AM+Circuit.png,"{'address_components': [{'long_name': 'Makati', 'short_name': 'Makati', 'types': ['locality', 'political']}, {'long_name': 'Metro Manila', 'short_name': 'NCR', 'types': ['administrative_area_level_1', 'political']}, {'long_name': 'Philippines', 'short_name': 'PH', 'types': ['country', 'political']}], 'formatted_address': 'Makati, Metro Manila, Philippines', 'geometry': {'location': {'lat': 14.5729856, 'lng': 121.0192591}, 'location_type': 'GEOMETRIC_CENTER', 'viewport': {'northeast': {'lat': 14.5743345802915, 'lng': 121.0206080802915}, 'southwest': {'lat': 14.5716366197085, 'lng': 121.0179101197085}}}, 'place_id': 'ChIJMW69w6TJlzMRXtsZ02oczYI', 'plus_code': {'compound_code': 'H2F9+5P Makati, Metro Manila, Philippines', 'global_code': '7Q63H2F9+5P'}, 'types': ['establishment', 'point_of_interest', 'shopping_mall']}",14.5729856,121.0192591,"Makati, Metro Manila, Philippines",Metro Manila
Ayala Malls Capitol Central,"Gatuslao Street, Bacolod City",+63 34 701 0000,https://s3-ap-southeast-1.amazonaws.com/interimweb/images/Photos/AM+CC+1.JPG,facebook.com/ayalamallscapitolcentralofficial,https://s3-ap-southeast-1.amazonaws.com/interimweb/images/Photos/AM+Capitol+Central.png,"{'address_components': [{'long_name': 'Gatuslao Street', 'short_name': 'Gatuslao St', 'types': ['route']}, {'long_name': 'Bacolod', 'short_name': 'Bacolod', 'types': ['locality', 'political']}, {'long_name': 'Negros Occidental', 'short_name': 'Negros Occidental', 'types': ['administrative_area_level_2', 'political']}, {'long_name': 'Western Visayas', 'short_name': 'Western Visayas', 'types': ['administrative_area_level_1', 'political']}, {'long_name': 'Philippines', 'short_name': 'PH', 'types': ['country', 'political']}], 'formatted_address': 'Gatuslao St, Bacolod, Negros Occidental, Philippines', 'geometry': {'bounds': {'northeast': {'lat': 10.6913427, 'lng': 122.9578517}, 'southwest': {'lat': 10.6619526, 'lng': 122.9437667}}, 'location': {'lat': 10.6773504, 'lng': 122.9509659}, 'location_type': 'GEOMETRIC_CENTER', 'viewport': {'northeast': {'lat': 10.6913427, 'lng': 122.9578517}, 'southwest': {'lat': 10.6619526, 'lng': 122.9437667}}}, 'place_id': 'ChIJye1g06nRrjMR3wZGHNchwiw', 'types': ['route']}",10.6773504,122.9509659,"Gatuslao St, Bacolod, Negros Occidental, Philippines",Negros Occidental
Shops at Serendra,"Serendra, 11th Ave., Bonifacio Global City, Taguig",+63 2 856 0523,https://s3-ap-southeast-1.amazonaws.com/interimweb/images/Photos/_ECL6753.JPG,facebook.com/ILoveSerendra,https://s3-ap-southeast-1.amazonaws.com/interimweb/images/Photos/Serendra+logo+(colored).JPG,"{'address_components': [{'long_name': '2CO3', 'short_name': '2CO3', 'types': ['subpremise']}, {'long_name': 'Serendra Mall Bonifacio Global City', 'short_name': 'Serendra Mall Bonifacio Global City', 'types': ['premise']}, {'long_name': '11th Avenue', 'short_name': '11th Ave', 'types': ['route']}, {'long_name': 'Taguig', 'short_name': 'Taguig', 'types': ['locality', 'political']}, {'long_name': 'Metro Manila', 'short_name': 'NCR', 'types': ['administrative_area_level_1', 'political']}, {'long_name': 'Philippines', 'short_name': 'PH', 'types': ['country', 'political']}], 'formatted_address': '2CO3, Serendra Mall Bonifacio Global City, 11th Ave, Taguig, Metro Manila, Philippines', 'geometry': {'location': {'lat': 14.5499127, 'lng': 121.0537711}, 'location_type': 'ROOFTOP', 'viewport': {'northeast': {'lat': 14.5512616802915, 'lng': 121.0551200802915}, 'southwest': {'lat': 14.5485637197085, 'lng': 121.0524221197085}}}, 'place_id': 'ChIJh_PriPLIlzMROriSKgH_6_M', 'plus_code': {'compound_code': 'G3X3+XG Taguig, Metro Manila, Philippines', 'global_code': '7Q63G3X3+XG'}, 'types': ['establishment', 'point_of_interest']}",14.5499127,121.0537711,"2CO3, Serendra Mall Bonifacio Global City, 11th Ave, Taguig, Metro Manila, Philippines",Metro Manila
Shops at Atria,"Atria Parks District, San Rafael, Mandurriao, Iloilo City",,https://s3-ap-southeast-1.amazonaws.com/interimweb/images/Photos/Atria+1.jpg,facebook.com/ShopsAtAtriaAyalaMalls,https://s3-ap-southeast-1.amazonaws.com/interimweb/images/Photos/LOGO+ATRIA+TRANSPRARENT.png,"{'address_components': [{'long_name': 'Iloilo Interior Building', 'short_name': 'Iloilo Interior Building', 'types': ['premise']}, {'long_name': 'Benigno Aquino Avenue', 'short_name': 'Benigno Aquino Ave', 'types': ['route']}, {'long_name': 'Mandurriao', 'short_name': 'Mandurriao', 'types': ['political', 'sublocality', 'sublocality_level_1']}, {'long_name': 'Iloilo City', 'short_name': 'Iloilo City', 'types': ['locality', 'political']}, {'long_name': 'Iloilo', 'short_name': 'Iloilo', 'types': ['administrative_area_level_2', 'political']}, {'long_name': 'Western Visayas', 'short_name': 'Western Visayas', 'types': ['administrative_area_level_1', 'political']}, {'long_name': 'Philippines', 'short_name': 'PH', 'types': ['country', 'political']}, {'long_name': '5000', 'short_name': '5000', 'types': ['postal_code']}], 'formatted_address': 'Iloilo Interior Building, Benigno Aquino Ave, Mandurriao, Iloilo City, 5000 Iloilo, Philippines', 'geometry': {'location': {'lat': 10.7067683, 'lng': 122.5488029}, 'location_type': 'ROOFTOP', 'viewport': {'northeast': {'lat': 10.7081172802915, 'lng': 122.5501518802915}, 'southwest': {'lat': 10.7054193197085, 'lng': 122.5474539197085}}}, 'place_id': 'ChIJh-rP2UflrjMRiD1mEgMI4No', 'plus_code': {'compound_code': 'PG4X+PG Iloilo City, Iloilo, Philippines', 'global_code': '7Q24PG4X+PG'}, 'types': ['establishment', 'point_of_interest', 'shopping_mall']}",10.7067683,122.5488029,"Iloilo Interior Building, Benigno Aquino Ave, Mandurriao, Iloilo City, 5000 Iloilo, Philippines",Iloilo
The District Dasmarinas,"Molina Road, Dasmarinas, Cavite",+63 46 506 6168,https://s3-ap-southeast-1.amazonaws.com/interimweb/images/Photos/TDD+1.jpg,facebook.com/TheDistrictDasmarinas,https://s3-ap-southeast-1.amazonaws.com/interimweb/images/Photos/TDD+Logo.jpg,"{'address_components': [{'long_name': 'Molino Road', 'short_name': 'Molino Rd', 'types': ['route']}, {'long_name': 'Bacoor', 'short_name': 'Bacoor', 'types': ['locality', 'political']}, {'long_name': 'Cavite', 'short_name': 'Cavite', 'types': ['administrative_area_level_2', 'political']}, {'long_name': 'Calabarzon', 'short_name': 'Calabarzon', 'types': ['administrative_area_level_1', 'political']}, {'long_name': 'Philippines', 'short_name': 'PH', 'types': ['country', 'political']}], 'formatted_address': 'Molino Rd, Bacoor, Cavite, Philippines', 'geometry': {'bounds': {'northeast': {'lat': 14.4638585, 'lng': 120.9818962}, 'southwest': {'lat': 14.383005, 'lng': 120.9589496}}, 'location': {'lat': 14.4238383, 'lng': 120.974921}, 'location_type': 'GEOMETRIC_CENTER', 'viewport': {'northeast': {'lat': 14.4638585, 'lng': 120.9818962}, 'southwest': {'lat': 14.383005, 'lng': 120.9589496}}}, 'partial_match': True, 'place_id': 'ChIJ7dJRC9LTlzMRZlOYaNb7pYM', 'types': ['route']}",14.4238383,120.974921,"Molino Rd, Bacoor, Cavite, Philippines",Cavite
The District Imus,"Aguinaldo Highway cor. Daang Hari Road Anabu II-D, Imus, Cavite",+63 46 543 2483,,facebook.com/TheDistrictImus,https://s3-ap-southeast-1.amazonaws.com/interimweb/images/Photos/The+District+Imus+logo.jpg,"{'address_components': [{'long_name': 'Emilio Aguinaldo Highway & Daang Hari Road', 'short_name': 'Emilio Aguinaldo Highway & Daang Hari Road', 'types': ['intersection']}, {'long_name': 'Imus', 'short_name': 'Imus', 'types': ['locality', 'political']}, {'long_name': 'Cavite', 'short_name': 'Cavite', 'types': ['administrative_area_level_2', 'political']}, {'long_name': 'Calabarzon', 'short_name': 'Calabarzon', 'types': ['administrative_area_level_1', 'political']}, {'long_name': 'Philippines', 'short_name': 'PH', 'types': ['country', 'political']}], 'formatted_address': 'Emilio Aguinaldo Highway & Daang Hari Road, Imus, Cavite, Philippines', 'geometry': {'location': {'lat': 14.3715973, 'lng': 120.9387468}, 'location_type': 'GEOMETRIC_CENTER', 'viewport': {'northeast': {'lat': 14.3729462802915, 'lng': 120.9400957802915}, 'southwest': {'lat': 14.3702483197085, 'lng': 120.9373978197085}}}, 'place_id': 'EkVFbWlsaW8gQWd1aW5hbGRvIEhpZ2h3YXkgJiBEYWFuZyBIYXJpIFJvYWQsIEltdXMsIENhdml0ZSwgUGhpbGlwcGluZXMiZiJkChQKEgmpzhT9ftOXMxHthaCdsDCBVRIUChIJqc4U_X7TlzMR7YWgnbAwgVUaFAoSCSuakQ6heb0zEZQsQLedV3BOGhQKEglLTJx8C9GXMxGj_C5F95I0qSIKDYXukAgVzMkVSA', 'types': ['intersection']}",14.3715973,120.9387468,"Emilio Aguinaldo Highway & Daang Hari Road, Imus, Cavite, Philippines",Cavite
The District North Point,"North Point, National Highway, Brgy Zone 15, Talisay City, Negros Occidental 6115",+ 63 34 707 7373,https://s3-ap-southeast-1.amazonaws.com/interimweb/images/Photos/The+District+North+Point.jpg,facebook.com/TheDistrictNorthpoint,https://s3-ap-southeast-1.amazonaws.com/interimweb/images/Photos/TDNP+Logo+1.png,"{'address_components': [{'long_name': 'Negros Occidental', 'short_name': 'Negros Occidental', 'types': ['administrative_area_level_2', 'political']}, {'long_name': 'Talisay City', 'short_name': 'Talisay City', 'types': ['locality', 'political']}, {'long_name': 'Western Visayas', 'short_name': 'Western Visayas', 'types': ['administrative_area_level_1', 'political']}, {'long_name': 'Philippines', 'short_name': 'PH', 'types': ['country', 'political']}, {'long_name': '6115', 'short_name': '6115', 'types': ['postal_code']}], 'formatted_address': 'Mallorca St Ayala North Point Talisay, Talisay City, 6115 Negros Occidental, Philippines', 'geometry': {'location': {'lat': 10.7184038, 'lng': 122.9671172}, 'location_type': 'GEOMETRIC_CENTER', 'viewport': {'northeast': {'lat': 10.7197527802915, 'lng': 122.9684661802915}, 'southwest': {'lat': 10.7170548197085, 'lng': 122.9657682197085}}}, 'place_id': 'ChIJW32mtUrRrjMRa7YwPfcoo3E', 'plus_code': {'compound_code': 'PX98+9R Talisay City, Negros Occidental, Philippines', 'global_code': '7Q24PX98+9R'}, 'types': ['establishment', 'point_of_interest']}",10.7184038,122.9671172,"Mallorca St Ayala North Point Talisay, Talisay City, 6115 Negros Occidental, Philippines",Negros Occidental
Shops at Ayala North Exchange,"Ayala Avenue corner Salcedo and Amorsolo Streets, Makati City 1229",,https://s3-ap-southeast-1.amazonaws.com/interimweb/images/Photos/ANEX2019_Mar_Photo_01.jpg,facebook.com/ShopsAtAyalaNorthExchange,https://s3-ap-southeast-1.amazonaws.com/interimweb/images/Photos/Ayala+North+Exchange.jpg,"{'address_components': [{'long_name': 'Salcedo', 'short_name': 'Salcedo', 'types': ['route']}, {'long_name': 'Legazpi Village', 'short_name': 'Legazpi Village', 'types': ['political', 'sublocality', 'sublocality_level_1']}, {'long_name': 'Makati', 'short_name': 'Makati', 'types': ['locality', 'political']}, {'long_name': 'Metro Manila', 'short_name': 'NCR', 'types': ['administrative_area_level_1', 'political']}, {'long_name': 'Philippines', 'short_name': 'PH', 'types': ['country', 'political']}, {'long_name': '1229', 'short_name': '1229', 'types': ['postal_code']}], 'formatted_address': 'Ayala North Exchange-Tower 1, 6796 Ayala Avenue corner Amorsolo Street &, Salcedo, Legazpi Village, Makati, 1229 Metro Manila, Philippines', 'geometry': {'location': {'lat': 14.5598775, 'lng': 121.0153365}, 'location_type': 'GEOMETRIC_CENTER', 'viewport': {'northeast': {'lat': 14.5612264802915, 'lng': 121.0166854802915}, 'southwest': {'lat': 14.5585285197085, 'lng': 121.0139875197085}}}, 'place_id': 'ChIJeZ4ViAXJlzMRvuui9KKF3Ac', 'plus_code': {'compound_code': 'H258+X4 Makati, Metro Manila, Philippines', 'global_code': '7Q63H258+X4'}, 'types': ['establishment', 'lodging', 'point_of_interest']}",14.5598775,121.0153365,"Ayala North Exchange-Tower 1, 6796 Ayala Avenue corner Amorsolo Street &, Salcedo, Legazpi Village, Makati, 1229 Metro Manila, Philippines",Metro Manila
Ayala Malls Manila Bay,"Macapagal Blvd cor. Aseana Avenue, Paranaque City",,https://interimweb.s3-ap-southeast-1.amazonaws.com/images/Mall+Photos/Ayala+Malls+Manila+Bay/Manila+Bay+Facade.jpg,facebook.com/ayalamallsmanilabay,https://interimweb.s3-ap-southeast-1.amazonaws.com/images/Mall+Photos/Ayala+Malls+Manila+Bay/Manila+Bay+Facade.jpg,"{'address_components': [{'long_name': 'Diosdado Macapagal Boulevard & Aseana Avenue', 'short_name': 'Diosdado Macapagal Blvd & Aseana Ave', 'types': ['intersection']}, {'long_name': 'Parañaque', 'short_name': 'Parañaque', 'types': ['locality', 'political']}, {'long_name': 'Metro Manila', 'short_name': 'NCR', 'types': ['administrative_area_level_1', 'political']}, {'long_name': 'Philippines', 'short_name': 'PH', 'types': ['country', 'political']}], 'formatted_address': 'Diosdado Macapagal Blvd & Aseana Ave, Parañaque, Metro Manila, Philippines', 'geometry': {'location': {'lat': 14.5252559, 'lng': 120.9902276}, 'location_type': 'GEOMETRIC_CENTER', 'viewport': {'northeast': {'lat': 14.5266048802915, 'lng': 120.9915765802915}, 'southwest': {'lat': 14.5239069197085, 'lng': 120.9888786197085}}}, 'place_id': 'EktEaW9zZGFkbyBNYWNhcGFnYWwgQmx2ZCAmIEFzZWFuYSBBdmUsIFBhcmHDsWFxdWUsIE1ldHJvIE1hbmlsYSwgUGhpbGlwcGluZXMiZiJkChQKEgmFcpXgqs6XMxHa5zBH5uHQFRIUChIJhXKV4KrOlzMR2ucwR-bh0BUaFAoSCQGHgW9VyZczETd5GnpgZOL5GhQKEglt6hM1AMyXMxFF1rll4TNl3iIKDc9gqAgVxKQdSA', 'types': ['intersection']}",14.5252559,120.9902276,"Diosdado Macapagal Blvd & Aseana Ave, Parañaque, Metro Manila, Philippines",Metro Manila
